[
  {
    "id" : 1,
    "name" : "Mikey's Grill",
    "rating" : 5,
    "avenue" : 34,
    "street" : "Market",
    "xVal" : 39.955854,
    "yVal" : -75.191432,
    "description" : "American, sandwiches",
    "phoneNumber" : "(267) 432 - 4700",
    "openHours" : null
  },
  {
    "id" : 2,
    "name" : "Lyn's",
    "rating" : 4.5,
    "avenue" : 36,
    "street" : "Spruce",
    "xVal" : 39.950792,
    "yVal" : -75.195304,
    "description" : "American, sandwiches",
    "phoneNumber" : "(267) 432 - 4700",
    "openHours" : null
  },
  {
    "id" : 3,
    "name" : "John's Lunch Cart",
    "rating" : 4.5,
    "avenue" : 33,
    "street" : "Spruce",
    "xVal" : 39.950331,
    "yVal" : -75.191717,
    "description" : "American, sandwiches",
    "phoneNumber" : "(267) 432 - 4700",
    "openHours" : null
  },
  {
    "id" : 4,
    "name" : "Rami's",
    "rating" : 4.5,
    "avenue" : 40,
    "street" : "Locust",
    "xVal" : 39.952977,
    "yVal" : -75.202820,
    "description" : "Middle-Eastern",
    "phoneNumber" : "(267) 432 - 4700",
    "openHours" : null
  },
  {
    "id" : 5,
    "name" : "Sandwich Cart",
    "rating" : 4.5,
    "avenue" : 35,
    "street" : "Market",
    "xVal" : 39.956213,
    "yVal" : -75.193475,
    "description" : "American, sandwiches",
    "phoneNumber" : "(267) 432 - 4700",
    "openHours" : null
  },
  {
    "id" : 6,
    "name" : "Gui's Breakfast and Lunch Cart",
    "rating" : 4.5,
    "avenue" : 36,
    "street" : "Market",
    "xVal" : 39.956213,
    "yVal" : -75.193475,
    "description" : "American, sandwiches",
    "phoneNumber" : "(267) 432 - 4700",
    "openHours" : null
  },
  {
    "id" : 7,
    "name" : "Pete's Little Lunch Box",
    "rating" : 4.5,
    "avenue" : 33,
    "street" : "Lancaster",
    "xVal" : 39.956423,
    "yVal" : -75.189327,
    "description" : "American, sandwiches",
    "phoneNumber" : "(267) 432 - 4700",
    "openHours" : null
  },
  {
    "id" : 8,
    "name" : "Magic Carpet",
    "rating" : 4.5,
    "avenue" : 36,
    "street" : "Spruce",
    "xVal" : 39.950792,
    "yVal" : -75.195304,
    "description" : "Vegetarian",
    "phoneNumber" : "(215) 327 - 7533",
    "openHours" : null
  },
  {
    "id" : 9,
    "name" : "Troy Mediterranean",
    "rating" : 4.5,
    "avenue" : 38,
    "street" : "Spruce",
    "xVal" : 39.951287,
    "yVal" : -75.199274,
    "description" : "Middle-Eastern",
    "phoneNumber" : "(610) 659 - 8855",
    "openHours" : null
  },
  {
    "id" : 10,
    "name" : "Fruit Truck",
    "rating" : 4.5,
    "avenue" : 37,
    "street" : "Spruce",
    "xVal" : 39.951020,
    "yVal" : -75.197285,
    "description" : "Fruit",
    "phoneNumber" : "(267) 432 - 4700",
    "openHours" : null
  },
  {
    "id" : 11,
    "name" : "Memo's Lunch Truck",
    "rating" : 4.5,
    "avenue" : 33,
    "street" : "Arch",
    "xVal" : 39.957611,
    "yVal" : -75.189076,
    "description" : "Middle-Eastern",
    "phoneNumber" : "(215) 939 - 4386",
    "openHours" : null
  },
  {
    "id" : 12,
    "name" : "Hanan House of Pita",
    "rating" : 4,
    "avenue" : 38,
    "street" : "Walnut",
    "xVal" : 39.953640,
    "yVal" : -75.198767,
    "description" : "Middle-Eastern",
    "phoneNumber" : "(267) 226 - 5692",
    "openHours" : null
  },
  {
    "id" : 13,
    "name" : "Fruit Truck",
    "rating" : 4,
    "avenue" : 35,
    "street" : "Market",
    "xVal" : 39.956213,
    "yVal" : -75.193475,
    "description" : "Fruit",
    "phoneNumber" : "(267) 432 - 4700",
    "openHours" : null
  },
  {
    "id" : 14,
    "name" : "Troy Mediterranean",
    "rating" : 4,
    "avenue" : 40,
    "street" : "Spruce",
    "xVal" : 39.951756,
    "yVal" : -75.193475,
    "description" : "Middle-Eastern",
    "phoneNumber" : "(610) 659 - 8855",
    "openHours" : null
  },
  {
    "id" : 15,
    "name" : "Sonic's",
    "rating" : 4,
    "avenue" : 37,
    "street" : "Spruce",
    "xVal" : 39.951030,
    "yVal" : -75.197268,
    "description" : "American, sandwiches",
    "phoneNumber" : "(267) 432 - 4700",
    "openHours" : null
  },
  {
    "id" : 16,
    "name" : "Ali Baba",
    "rating" : 4,
    "avenue" : 37,
    "street" : "Walnut",
    "xVal" : 39.953388,
    "yVal" : -75.196763,
    "description" : "Middle-Eastern",
    "phoneNumber" : "(267) 432 - 4700",
    "openHours" : null
  }
]